[
    {
        "id": 1,
        "name": "Theresa Houge",
        "location": {
            "address": "1522 South 36th Street",
            "city": "Louisville",
            "state": "KY",
            "zipcode": "40211"
        },
        "email": "theresahouge@yahoo.fr",
        "phone": "0661111984"
    },
    {
        "id": 2,
        "name": "Jerry Burdick",
        "location": {
            "address": "78 Cliffside Drive",
            "city": "Manchester",
            "state": "CT",
            "zipcode": "06042"
        },
        "email": "jerryburdick@outlook.com",
        "phone": "0622610497"
    },
    {
        "id": 3,
        "name": "Emma Ross",
        "location": {
            "address": "7102 North 43rd Avenue",
            "city": "Glendale",
            "state": "AZ",
            "zipcode": "85301"
        },
        "email": "emmaross@hotmail.com",
        "phone": "O758696821"
    },
    {
        "id": 4,
        "name": "Jordan Blakney",
        "location": {
            "address": "4235 Phelan Court",
            "city": "Montgomery",
            "state": "AL",
            "zipcode": "36116"
        },
        "email": "jordanblakney@hotmail.com",
        "phone": "O732298642"
    },
    {
        "id": 5,
        "name": "Rosemary Edwards",
        "location": {
            "address": "75 Wilfred Road",
            "city": "Manchester",
            "state": "CT",
            "zipcode": "06040"
        },
        "email": "rosemaryedwards@yahoo.fr",
        "phone": "O743761114"
    },
    {
        "id": 6,
        "name": "Manuel Vargas",
        "location": {
            "address": "120 Depot Street",
            "city": "Easton",
            "state": "MA",
            "zipcode": "02375"
        },
        "email": "manuelvargas@gmail.fr",
        "phone": "O710935735"
    },
    {
        "id": 7,
        "name": "Margaret Kopp",
        "location": {
            "address": "3031 Casa Drive",
            "city": "Nashville",
            "state": "TN",
            "zipcode": "37214"
        },
        "email": "margaretkopp@outlook.fr",
        "phone": "0657735937"
    },
    {
        "id": 8,
        "name": "Paul Willingham",
        "location": {
            "address": "230 East 8th Street",
            "city": "Edmond",
            "state": "OK",
            "zipcode": "73034"
        },
        "email": "paulwillingham@yahoo.fr",
        "phone": "O721327250"
    },
    {
        "id": 9,
        "name": "William Goldson",
        "location": {
            "address": "720 East Muhammad Ali Boulevard",
            "city": "Louisville",
            "state": "KY",
            "zipcode": "40202"
        },
        "email": "williamgoldson@outlook.com",
        "phone": "0676277022"
    },
    {
        "id": 10,
        "name": "David Brown",
        "location": {
            "address": "7785 Montgomery Mews Court",
            "city": "Severn",
            "state": "MD",
            "zipcode": "21144"
        },
        "email": "davidbrown@gmail.com",
        "phone": "0638429089"
    },
    {
        "id": 11,
        "name": "David Torgersen",
        "location": {
            "address": "5170 Hickory Hollow Parkway",
            "city": "Nashville",
            "state": "TN",
            "zipcode": "37013"
        },
        "email": "davidtorgersen@yahoo.com",
        "phone": "0649863223"
    },
    {
        "id": 12,
        "name": "Karen Smith",
        "location": {
            "address": "1609 Porter Avenue",
            "city": "Nashville",
            "state": "TN",
            "zipcode": "37206"
        },
        "email": "karensmith@yahoo.fr",
        "phone": "0629292821"
    },
    {
        "id": 13,
        "name": "Tiny Sanchez",
        "location": {
            "address": "103 Razz Way",
            "city": "Panama City Beach",
            "state": "FL",
            "zipcode": "32408"
        },
        "email": "tinysanchez@gmail.com",
        "phone": "O714130382"
    },
    {
        "id": 14,
        "name": "Justine Morin",
        "location": {
            "address": "104 White Street",
            "city": "Manchester",
            "state": "CT",
            "zipcode": "06042"
        },
        "email": "justinemorin@hotmail.fr",
        "phone": "O731490264"
    },
    {
        "id": 15,
        "name": "Ellis Crump",
        "location": {
            "address": "1302 Cherry Street",
            "city": "Panama City",
            "state": "FL",
            "zipcode": "32401"
        },
        "email": "elliscrump@outlook.fr",
        "phone": "O738590385"
    },
    {
        "id": 16,
        "name": "Jasper Zuehlke",
        "location": {
            "address": "804 East 7th Court",
            "city": "Panama City",
            "state": "FL",
            "zipcode": "32401"
        },
        "email": "jasperzuehlke@hotmail.com",
        "phone": "O744811398"
    },
    {
        "id": 17,
        "name": "John Hart",
        "location": {
            "address": "7529 West 72nd Avenue",
            "city": "Arvada",
            "state": "CO",
            "zipcode": "80003"
        },
        "email": "johnhart@yahoo.fr",
        "phone": "0665379817"
    },
    {
        "id": 18,
        "name": "Robert Kramer",
        "location": {
            "address": "4924 West 65th Avenue",
            "city": "Arvada",
            "state": "CO",
            "zipcode": "80003"
        },
        "email": "robertkramer@hotmail.fr",
        "phone": "O733456083"
    },
    {
        "id": 19,
        "name": "Leon Smith",
        "location": {
            "address": "739 Center Street",
            "city": "Manchester",
            "state": "CT",
            "zipcode": "06040"
        },
        "email": "leonsmith@hotmail.com",
        "phone": "0684835025"
    },
    {
        "id": 20,
        "name": "Richard Mckay",
        "location": {
            "address": "6005 Tamarack Drive",
            "city": "Montgomery",
            "state": "AL",
            "zipcode": "36117"
        },
        "email": "richardmckay@hotmail.com",
        "phone": "0626301492"
    },
    {
        "id": 21,
        "name": "Deborah Burnham",
        "location": {
            "address": "8202 4 Winds Drive",
            "city": "Lyndon",
            "state": "KY",
            "zipcode": "40222"
        },
        "email": "deborahburnham@outlook.fr",
        "phone": "0658121134"
    },
    {
        "id": 22,
        "name": "Justin Clayton",
        "location": {
            "address": "4121 Northwest 31st Street",
            "city": "Oklahoma City",
            "state": "OK",
            "zipcode": "73112"
        },
        "email": "justinclayton@hotmail.fr",
        "phone": "0654000074"
    },
    {
        "id": 23,
        "name": "Dianne Guthrie",
        "location": {
            "address": "503 Orchard Road",
            "city": "Glen Burnie",
            "state": "MD",
            "zipcode": "21061"
        },
        "email": "dianneguthrie@hotmail.com",
        "phone": "0692255308"
    },
    {
        "id": 24,
        "name": "Linda Hernandez",
        "location": {
            "address": "1106 Mission Drive",
            "city": "Antioch",
            "state": "CA",
            "zipcode": "94509"
        },
        "email": "lindahernandez@outlook.com",
        "phone": "0645234145"
    },
    {
        "id": 25,
        "name": "Edward Johnson",
        "location": {
            "address": "402 Tuten Avenue",
            "city": "Savannah",
            "state": "GA",
            "zipcode": "31415"
        },
        "email": "edwardjohnson@yahoo.com",
        "phone": "O792116243"
    },
    {
        "id": 26,
        "name": "Robert Fleniken",
        "location": {
            "address": "5306 Ritchie Highway",
            "city": "Baltimore",
            "state": "MD",
            "zipcode": "21225"
        },
        "email": "robertfleniken@hotmail.fr",
        "phone": "0639491539"
    },
    {
        "id": 27,
        "name": "Nellie Alsdon",
        "location": {
            "address": "2147 Millhaven Drive",
            "city": "Edgewater",
            "state": "MD",
            "zipcode": "21037"
        },
        "email": "nelliealsdon@gmail.com",
        "phone": "0674949681"
    },
    {
        "id": 28,
        "name": "Maria Hernandez",
        "location": {
            "address": "1771 Daisey Court",
            "city": "Millersville",
            "state": "MD",
            "zipcode": "21108"
        },
        "email": "mariahernandez@outlook.com",
        "phone": "O725718240"
    },
    {
        "id": 29,
        "name": "Veronica Sims",
        "location": {
            "address": "328 Missouri Avenue Northwest",
            "city": "Washington",
            "state": "DC",
            "zipcode": "20011"
        },
        "email": "veronicasims@outlook.fr",
        "phone": "O730436760"
    },
    {
        "id": 30,
        "name": "Clay Gugino",
        "location": {
            "address": "16031 West 63rd Lane",
            "city": "Arvada",
            "state": "CO",
            "zipcode": "80403"
        },
        "email": "claygugino@gmail.fr",
        "phone": "0663902530"
    },
    {
        "id": 31,
        "name": "Wanda Emery",
        "location": {
            "address": "17361 Baronoff Avenue",
            "city": "Anchorage",
            "state": "AK",
            "zipcode": "99577"
        },
        "email": "wandaemery@yahoo.fr",
        "phone": "0662839535"
    },
    {
        "id": 32,
        "name": "Beverly Christinsen",
        "location": {
            "address": "6500 Park Club Circle",
            "city": "Louisville",
            "state": "KY",
            "zipcode": "40229"
        },
        "email": "beverlychristinsen@gmail.fr",
        "phone": "O781701224"
    },
    {
        "id": 33,
        "name": "Chance Carter",
        "location": {
            "address": "12 Kane Road",
            "city": "Manchester",
            "state": "CT",
            "zipcode": "06040"
        },
        "email": "chancecarter@outlook.fr",
        "phone": "0688935981"
    },
    {
        "id": 34,
        "name": "Kurt Power",
        "location": {
            "address": "700 Winston Place",
            "city": "Anchorage",
            "state": "AK",
            "zipcode": "99504"
        },
        "email": "kurtpower@outlook.fr",
        "phone": "O798813647"
    },
    {
        "id": 35,
        "name": "Joi Portillo",
        "location": {
            "address": "3164 West Woodfield Way",
            "city": "Fayetteville",
            "state": "AR",
            "zipcode": "72704"
        },
        "email": "joiportillo@yahoo.fr",
        "phone": "O782439194"
    },
    {
        "id": 36,
        "name": "Michael Dicks",
        "location": {
            "address": "5331 Rexford Court",
            "city": "Montgomery",
            "state": "AL",
            "zipcode": "36116"
        },
        "email": "michaeldicks@gmail.fr",
        "phone": "0614100416"
    },
    {
        "id": 38,
        "name": "Tiffany Rogers",
        "location": {
            "address": "2443 Sierra Nevada Road",
            "city": "Mammoth Lakes",
            "state": "CA",
            "zipcode": "93546"
        },
        "email": "tiffanyrogers@gmail.fr",
        "phone": "0668897467"
    },
    {
        "id": 39,
        "name": "Elin Erway",
        "location": {
            "address": "9036 Calico Court",
            "city": "Hesperia",
            "state": "CA",
            "zipcode": "92344"
        },
        "email": "elinerway@yahoo.fr",
        "phone": "0646361540"
    },
    {
        "id": 40,
        "name": "Larue Paul",
        "location": {
            "address": "5055 West 58th Avenue",
            "city": "Arvada",
            "state": "CO",
            "zipcode": "80002"
        },
        "email": "laruepaul@yahoo.fr",
        "phone": "0628849986"
    },
    {
        "id": 41,
        "name": "Randy Davies",
        "location": {
            "address": "1828 East Parkshore Drive",
            "city": "Fayetteville",
            "state": "AR",
            "zipcode": "72703"
        },
        "email": "randydavies@yahoo.fr",
        "phone": "O736775614"
    },
    {
        "id": 42,
        "name": "Kelly Holloway",
        "location": {
            "address": "1309 Southwest 71st Terrace",
            "city": "Oklahoma City",
            "state": "OK",
            "zipcode": "73159"
        },
        "email": "kellyholloway@yahoo.com",
        "phone": "O758507155"
    },
    {
        "id": 43,
        "name": "Christopher Kennedy",
        "location": {
            "address": "406 Stilz Avenue",
            "city": "Louisville",
            "state": "KY",
            "zipcode": "40206"
        },
        "email": "christopherkennedy@gmail.com",
        "phone": "0671020038"
    },
    {
        "id": 44,
        "name": "Bonnie Olson",
        "location": {
            "address": "2505 Shadow Lane",
            "city": "Nashville",
            "state": "TN",
            "zipcode": "37216"
        },
        "email": "bonnieolson@yahoo.fr",
        "phone": "O797443337"
    },
    {
        "id": 45,
        "name": "Nathan Hughes",
        "location": {
            "address": "7034 West John Garrison Road",
            "city": "Fayetteville",
            "state": "AR",
            "zipcode": "72704"
        },
        "email": "nathanhughes@gmail.fr",
        "phone": "0631802275"
    },
    {
        "id": 46,
        "name": "Tyisha Cameron",
        "location": {
            "address": "7041 Coe Road",
            "city": "Panama City",
            "state": "FL",
            "zipcode": "32404"
        },
        "email": "tyishacameron@gmail.com",
        "phone": "O747744512"
    },
    {
        "id": 47,
        "name": "Jose Utterback",
        "location": {
            "address": "1304 Southwest 67th Street",
            "city": "Oklahoma City",
            "state": "OK",
            "zipcode": "73159"
        },
        "email": "joseutterback@yahoo.com",
        "phone": "O733054469"
    },
    {
        "id": 48,
        "name": "David James",
        "location": {
            "address": "4231 Miramonte Way",
            "city": "Union City",
            "state": "CA",
            "zipcode": "94587"
        },
        "email": "davidjames@gmail.com",
        "phone": "0656015920"
    },
    {
        "id": 49,
        "name": "Antonia Armstrong",
        "location": {
            "address": "95 Westbourne Way",
            "city": "Pooler",
            "state": "GA",
            "zipcode": "31322"
        },
        "email": "antoniaarmstrong@yahoo.com",
        "phone": "0646303582"
    },
    {
        "id": 50,
        "name": "Roy Odle",
        "location": {
            "address": "2335 Orchard View Lane",
            "city": "Escondido",
            "state": "CA",
            "zipcode": "92027"
        },
        "email": "royodle@hotmail.com",
        "phone": "0633365504"
    },
    {
        "id": 51,
        "name": "Devon Thresher",
        "location": {
            "address": "23128 Donalda Avenue",
            "city": "Port Charlotte",
            "state": "FL",
            "zipcode": "33954"
        },
        "email": "devonthresher@yahoo.fr",
        "phone": "O718198751"
    },
    {
        "id": 52,
        "name": "Cynthia Macko",
        "location": {
            "address": "1263 Evarts Street Northeast",
            "city": "Washington",
            "state": "DC",
            "zipcode": "20018"
        },
        "email": "cynthiamacko@hotmail.fr",
        "phone": "O738025595"
    },
    {
        "id": 53,
        "name": "David Hunt",
        "location": {
            "address": "7232 West Melinda Lane",
            "city": "Glendale",
            "state": "AZ",
            "zipcode": "85308"
        },
        "email": "davidhunt@outlook.com",
        "phone": "0664187607"
    },
    {
        "id": 54,
        "name": "Nidia Dollyhigh",
        "location": {
            "address": "404 Ramble Wood Circle",
            "city": "Nashville",
            "state": "TN",
            "zipcode": "37221"
        },
        "email": "nidiadollyhigh@hotmail.com",
        "phone": "O740586747"
    },
    {
        "id": 55,
        "name": "Dinah Tavolario",
        "location": {
            "address": "1601 East 19th Street",
            "city": "Edmond",
            "state": "OK",
            "zipcode": "73013"
        },
        "email": "dinahtavolario@outlook.com",
        "phone": "O760239029"
    },
    {
        "id": 56,
        "name": "Barbara Betts",
        "location": {
            "address": "1823 North Munchkin Lane",
            "city": "Fayetteville",
            "state": "AR",
            "zipcode": "72704"
        },
        "email": "barbarabetts@hotmail.fr",
        "phone": "0663463516"
    },
    {
        "id": 57,
        "name": "Alina Betts",
        "location": {
            "address": "5275 North 59th Avenue",
            "city": "Glendale",
            "state": "AZ",
            "zipcode": "85301"
        },
        "email": "alinabetts@gmail.com",
        "phone": "O732177355"
    },
    {
        "id": 58,
        "name": "Whitney Doyle",
        "location": {
            "address": "6451 West Bell Road",
            "city": "Glendale",
            "state": "AZ",
            "zipcode": "85308"
        },
        "email": "whitneydoyle@hotmail.com",
        "phone": "0661702841"
    },
    {
        "id": 59,
        "name": "Sarah Norris",
        "location": {
            "address": "7613 Yule Court",
            "city": "Arvada",
            "state": "CO",
            "zipcode": "80007"
        },
        "email": "sarahnorris@yahoo.com",
        "phone": "O711817121"
    },
    {
        "id": 60,
        "name": "Nicole Strefeler",
        "location": {
            "address": "1820 Scenic Avenue",
            "city": "Berkeley",
            "state": "CA",
            "zipcode": "94709"
        },
        "email": "nicolestrefeler@yahoo.com",
        "phone": "O746339373"
    },
    {
        "id": 61,
        "name": "Jessica Marsh",
        "location": {
            "address": "900 Dupont Road",
            "city": "Louisville",
            "state": "KY",
            "zipcode": "40207"
        },
        "email": "jessicamarsh@outlook.com",
        "phone": "0656227313"
    },
    {
        "id": 62,
        "name": "Domingo Kesterson",
        "location": {
            "address": "3386 Sudlersville South",
            "city": "Laurel",
            "state": "MD",
            "zipcode": "20724"
        },
        "email": "domingokesterson@outlook.com",
        "phone": "0641856151"
    },
    {
        "id": 63,
        "name": "Ella Lam",
        "location": {
            "address": "5556 West Northview Avenue",
            "city": "Glendale",
            "state": "AZ",
            "zipcode": "85301"
        },
        "email": "ellalam@hotmail.fr",
        "phone": "0678958714"
    },
    {
        "id": 64,
        "name": "Johnny Araujo",
        "location": {
            "address": "354 North University Avenue",
            "city": "Fayetteville",
            "state": "AR",
            "zipcode": "72701"
        },
        "email": "johnnyaraujo@yahoo.fr",
        "phone": "0672389516"
    },
    {
        "id": 65,
        "name": "Aubrey Martin",
        "location": {
            "address": "2917 Miramar Drive",
            "city": "Fayetteville",
            "state": "AR",
            "zipcode": "72704"
        },
        "email": "aubreymartin@hotmail.fr",
        "phone": "0637005706"
    },
    {
        "id": 66,
        "name": "Beth Trantham",
        "location": {
            "address": "716 O Street",
            "city": "Anchorage",
            "state": "AK",
            "zipcode": "99501"
        },
        "email": "bethtrantham@gmail.fr",
        "phone": "0617869038"
    },
    {
        "id": 67,
        "name": "Stephen Cole",
        "location": {
            "address": "7711 North 51st Avenue",
            "city": "Glendale",
            "state": "AZ",
            "zipcode": "85301"
        },
        "email": "stephencole@gmail.com",
        "phone": "O787673032"
    },
    {
        "id": 68,
        "name": "Linda Hull",
        "location": {
            "address": "141 Lavigne Road",
            "city": "Colchester",
            "state": "VT",
            "zipcode": "05446"
        },
        "email": "lindahull@yahoo.fr",
        "phone": "0631545728"
    },
    {
        "id": 69,
        "name": "Barton Green",
        "location": {
            "address": "61 Hills Street",
            "city": "Manchester",
            "state": "CT",
            "zipcode": "06040"
        },
        "email": "bartongreen@gmail.com",
        "phone": "O713406989"
    },
    {
        "id": 70,
        "name": "Jeff Duppstadt",
        "location": {
            "address": "4 Samuel Riggs Circle",
            "city": "Gloucester",
            "state": "MA",
            "zipcode": "01930"
        },
        "email": "jeffduppstadt@hotmail.com",
        "phone": "0635775803"
    },
    {
        "id": 71,
        "name": "Clara Jackson",
        "location": {
            "address": "4328 Brewer Road",
            "city": "Montgomery",
            "state": "AL",
            "zipcode": "36108"
        },
        "email": "clarajackson@outlook.com",
        "phone": "O713409365"
    },
    {
        "id": 72,
        "name": "Jeffrey Murphrey",
        "location": {
            "address": "632 Belmar Drive",
            "city": "Edmond",
            "state": "OK",
            "zipcode": "73025"
        },
        "email": "jeffreymurphrey@gmail.fr",
        "phone": "O729449068"
    },
    {
        "id": 73,
        "name": "Carolyn Donnell",
        "location": {
            "address": "552 Maynadier Lane",
            "city": "Crownsville",
            "state": "MD",
            "zipcode": "21032"
        },
        "email": "carolyndonnell@yahoo.fr",
        "phone": "O712587097"
    },
    {
        "id": 74,
        "name": "Laveta Ladd",
        "location": {
            "address": "5575 South Dakota Avenue Northeast",
            "city": "Washington",
            "state": "DC",
            "zipcode": "20011"
        },
        "email": "lavetaladd@hotmail.com",
        "phone": "O738936991"
    },
    {
        "id": 75,
        "name": "Phillip Hobson",
        "location": {
            "address": "16502 South Main Street",
            "city": "Gardena",
            "state": "CA",
            "zipcode": "90248"
        },
        "email": "philliphobson@outlook.fr",
        "phone": "O752298503"
    },
    {
        "id": 76,
        "name": "Clyde Carpenter",
        "location": {
            "address": "514 Flower Lane",
            "city": "Alameda",
            "state": "CA",
            "zipcode": "94502"
        },
        "email": "clydecarpenter@yahoo.fr",
        "phone": "O711107585"
    },
    {
        "id": 77,
        "name": "Janice Albers",
        "location": {
            "address": "10202 North 51st Drive",
            "city": "Glendale",
            "state": "AZ",
            "zipcode": "85302"
        },
        "email": "janicealbers@hotmail.com",
        "phone": "O746158217"
    },
    {
        "id": 78,
        "name": "Robert Harris",
        "location": {
            "address": "20097 Butterfield Drive",
            "city": "Castro Valley",
            "state": "CA",
            "zipcode": "94546"
        },
        "email": "robertharris@outlook.fr",
        "phone": "O732153981"
    },
    {
        "id": 79,
        "name": "Daniel Nesbitt",
        "location": {
            "address": "1606 Trevilian Way",
            "city": "Louisville",
            "state": "KY",
            "zipcode": "40205"
        },
        "email": "danielnesbitt@gmail.fr",
        "phone": "0675272032"
    },
    {
        "id": 80,
        "name": "Norma Meyer",
        "location": {
            "address": "3365 South Cato Springs Road",
            "city": "Fayetteville",
            "state": "AR",
            "zipcode": "72701"
        },
        "email": "normameyer@gmail.com",
        "phone": "0647515268"
    },
    {
        "id": 81,
        "name": "Eugene Nelson",
        "location": {
            "address": "3102 Kinvara Lane",
            "city": "Louisville",
            "state": "KY",
            "zipcode": "40242"
        },
        "email": "eugenenelson@outlook.com",
        "phone": "O710940617"
    },
    {
        "id": 82,
        "name": "Patricia Alvarado",
        "location": {
            "address": "915 Arkansas Avenue",
            "city": "Lynn Haven",
            "state": "FL",
            "zipcode": "32444"
        },
        "email": "patriciaalvarado@yahoo.fr",
        "phone": "0617669973"
    },
    {
        "id": 83,
        "name": "Miguel Dixon",
        "location": {
            "address": "302 Mcmillin Street",
            "city": "Nashville",
            "state": "TN",
            "zipcode": "37203"
        },
        "email": "migueldixon@hotmail.com",
        "phone": "O796105208"
    },
    {
        "id": 84,
        "name": "Esther Hambric",
        "location": {
            "address": "1255 U.S. Route 5 North",
            "city": "Windsor",
            "state": "VT",
            "zipcode": "05089"
        },
        "email": "estherhambric@hotmail.fr",
        "phone": "O738899434"
    },
    {
        "id": 85,
        "name": "Susan Elam",
        "location": {
            "address": "3402 Prestwood Drive",
            "city": "Louisville",
            "state": "KY",
            "zipcode": "40219"
        },
        "email": "susanelam@hotmail.com",
        "phone": "0637698940"
    },
    {
        "id": 86,
        "name": "Joyce Paxton",
        "location": {
            "address": "11 North Vineyard Drive",
            "city": "Pueblo West",
            "state": "CO",
            "zipcode": "81007"
        },
        "email": "joycepaxton@hotmail.com",
        "phone": "0696409614"
    },
    {
        "id": 87,
        "name": "Christopher Smith",
        "location": {
            "address": "107 Mark Drive",
            "city": "Glen Burnie",
            "state": "MD",
            "zipcode": "21061"
        },
        "email": "christophersmith@yahoo.fr",
        "phone": "O725375911"
    },
    {
        "id": 88,
        "name": "Michael Aldridge",
        "location": {
            "address": "1817 Beech Street",
            "city": "Louisville",
            "state": "KY",
            "zipcode": "40210"
        },
        "email": "michaelaldridge@yahoo.fr",
        "phone": "O762178158"
    },
    {
        "id": 89,
        "name": "Edward Breen",
        "location": {
            "address": "1992 West Street",
            "city": "Brookfield",
            "state": "VT",
            "zipcode": "05036"
        },
        "email": "edwardbreen@outlook.com",
        "phone": "O715335220"
    },
    {
        "id": 90,
        "name": "Juan Smith",
        "location": {
            "address": "33 South Hill Avenue",
            "city": "Fayetteville",
            "state": "AR",
            "zipcode": "72701"
        },
        "email": "juansmith@hotmail.com",
        "phone": "O729342425"
    },
    {
        "id": 91,
        "name": "Leslie Kaya",
        "location": {
            "address": "108 Chalmers Avenue",
            "city": "Glen Burnie",
            "state": "MD",
            "zipcode": "21061"
        },
        "email": "lesliekaya@gmail.fr",
        "phone": "O732715218"
    },
    {
        "id": 92,
        "name": "Betty Mack",
        "location": {
            "address": "1304 Southwest 67th Street",
            "city": "Oklahoma City",
            "state": "OK",
            "zipcode": "73159"
        },
        "email": "bettymack@outlook.com",
        "phone": "0615949355"
    },
    {
        "id": 93,
        "name": "Ronald Martin",
        "location": {
            "address": "3219 Lakeshore Drive",
            "city": "Nashville",
            "state": "TN",
            "zipcode": "37138"
        },
        "email": "ronaldmartin@hotmail.fr",
        "phone": "0685268452"
    },
    {
        "id": 94,
        "name": "Kellie Keith",
        "location": {
            "address": "8063 Regency Drive",
            "city": "Pleasanton",
            "state": "CA",
            "zipcode": "94588"
        },
        "email": "kelliekeith@yahoo.fr",
        "phone": "0630163491"
    },
    {
        "id": 95,
        "name": "Carmela Hill",
        "location": {
            "address": "4444 Central Avenue",
            "city": "Fremont",
            "state": "CA",
            "zipcode": "94536"
        },
        "email": "carmelahill@gmail.com",
        "phone": "O720842667"
    },
    {
        "id": 96,
        "name": "Elizabeth Uribe",
        "location": {
            "address": "2035 Ninth Street",
            "city": "Berkeley",
            "state": "CA",
            "zipcode": "94710"
        },
        "email": "elizabethuribe@yahoo.com",
        "phone": "0644649988"
    },
    {
        "id": 97,
        "name": "Monica Crawford",
        "location": {
            "address": "880 H Street",
            "city": "Anchorage",
            "state": "AK",
            "zipcode": "99501"
        },
        "email": "monicacrawford@gmail.fr",
        "phone": "O745223173"
    },
    {
        "id": 98,
        "name": "Bobbie Hockensmith",
        "location": {
            "address": "565 Amber Isle",
            "city": "Alameda",
            "state": "CA",
            "zipcode": "94501"
        },
        "email": "bobbiehockensmith@yahoo.com",
        "phone": "O713236562"
    },
    {
        "id": 99,
        "name": "Joan Kelly",
        "location": {
            "address": "702 Plantation Circle",
            "city": "Panama City",
            "state": "FL",
            "zipcode": "32404"
        },
        "email": "joankelly@hotmail.fr",
        "phone": "0632535845"
    },
    {
        "id": 100,
        "name": "James Porter",
        "location": {
            "address": "4516 Old Seward Highway",
            "city": "Anchorage",
            "state": "AK",
            "zipcode": "99503"
        },
        "email": "jamesporter@hotmail.fr",
        "phone": "O798868388"
    },
    {
        "id": 101,
        "name": "Kelly Flaherty",
        "location": {
            "address": "311 South Panama Street",
            "city": "Montgomery",
            "state": "AL",
            "zipcode": "36107"
        },
        "email": "kellyflaherty@gmail.fr",
        "phone": "0699382704"
    },
    {
        "id": 102,
        "name": "Gerald Mccord",
        "location": {
            "address": "16896 West 85th Lane",
            "city": "Arvada",
            "state": "CO",
            "zipcode": "80007"
        },
        "email": "geraldmccord@gmail.fr",
        "phone": "O729193164"
    },
    {
        "id": 103,
        "name": "Henry Anderson",
        "location": {
            "address": "804 Old Coach Place",
            "city": "Nashville",
            "state": "TN",
            "zipcode": "37076"
        },
        "email": "henryanderson@gmail.com",
        "phone": "0625047533"
    },
    {
        "id": 104,
        "name": "Anthony Brester",
        "location": {
            "address": "6342 West Wheeler Road",
            "city": "Fayetteville",
            "state": "AR",
            "zipcode": "72704"
        },
        "email": "anthonybrester@gmail.com",
        "phone": "0615136121"
    },
    {
        "id": 105,
        "name": "Richard Danner",
        "location": {
            "address": "6730 North 59th Drive",
            "city": "Glendale",
            "state": "AZ",
            "zipcode": "85301"
        },
        "email": "richarddanner@hotmail.com",
        "phone": "O736390638"
    },
    {
        "id": 106,
        "name": "Anne Brace",
        "location": {
            "address": "702 East 53rd Street",
            "city": "Savannah",
            "state": "GA",
            "zipcode": "31405"
        },
        "email": "annebrace@yahoo.fr",
        "phone": "0637081924"
    },
    {
        "id": 107,
        "name": "Joseph Daniell",
        "location": {
            "address": "1504 P Street Northwest",
            "city": "Washington",
            "state": "DC",
            "zipcode": "20005"
        },
        "email": "josephdaniell@yahoo.com",
        "phone": "O737856190"
    },
    {
        "id": 108,
        "name": "Irene Ogle",
        "location": {
            "address": "115 Colemont Court",
            "city": "Nashville",
            "state": "TN",
            "zipcode": "37013"
        },
        "email": "ireneogle@yahoo.com",
        "phone": "0613904242"
    },
    {
        "id": 109,
        "name": "Ruth Fender",
        "location": {
            "address": "83 Oakdale Road",
            "city": "Newton",
            "state": "MA",
            "zipcode": "02459"
        },
        "email": "ruthfender@yahoo.fr",
        "phone": "0686629170"
    },
    {
        "id": 110,
        "name": "Thomas Jasper",
        "location": {
            "address": "403 Irwin Street",
            "city": "Anchorage",
            "state": "AK",
            "zipcode": "99508"
        },
        "email": "thomasjasper@outlook.fr",
        "phone": "O713969849"
    },
    {
        "id": 111,
        "name": "Thomas Batson",
        "location": {
            "address": "875 Latouche Street",
            "city": "Anchorage",
            "state": "AK",
            "zipcode": "99501"
        },
        "email": "thomasbatson@yahoo.fr",
        "phone": "0682844988"
    },
    {
        "id": 112,
        "name": "Carol Anderegg",
        "location": {
            "address": "2613 Cottonwood Street",
            "city": "Anchorage",
            "state": "AK",
            "zipcode": "99508"
        },
        "email": "carolanderegg@yahoo.fr",
        "phone": "0625238736"
    },
    {
        "id": 113,
        "name": "Charlene Moore",
        "location": {
            "address": "502 Main Street",
            "city": "Walpole",
            "state": "MA",
            "zipcode": "02081"
        },
        "email": "charlenemoore@hotmail.fr",
        "phone": "0658590008"
    },
    {
        "id": 114,
        "name": "Mary Abbott",
        "location": {
            "address": "4405 West Solano Drive South",
            "city": "Glendale",
            "state": "AZ",
            "zipcode": "85301"
        },
        "email": "maryabbott@hotmail.com",
        "phone": "O744715993"
    },
    {
        "id": 115,
        "name": "Ryan Mace",
        "location": {
            "address": "640 Hilliard Street",
            "city": "Manchester",
            "state": "CT",
            "zipcode": "06042"
        },
        "email": "ryanmace@hotmail.com",
        "phone": "0635689878"
    },
    {
        "id": 116,
        "name": "Rosalyn Loewen",
        "location": {
            "address": "269 Hugh Thomas Drive",
            "city": "Panama City",
            "state": "FL",
            "zipcode": "32404"
        },
        "email": "rosalynloewen@hotmail.fr",
        "phone": "0640394553"
    },
    {
        "id": 117,
        "name": "Roland Chevalier",
        "location": {
            "address": "3164 West Woodfield Way",
            "city": "Fayetteville",
            "state": "AR",
            "zipcode": "72704"
        },
        "email": "rolandchevalier@yahoo.fr",
        "phone": "0679140648"
    },
    {
        "id": 118,
        "name": "William Nakata",
        "location": {
            "address": "4907 Roger Drive",
            "city": "Anchorage",
            "state": "AK",
            "zipcode": "99507"
        },
        "email": "williamnakata@yahoo.fr",
        "phone": "O725879254"
    },
    {
        "id": 119,
        "name": "Meghan Jansen",
        "location": {
            "address": "386 Daniels Road",
            "city": "New Haven",
            "state": "VT",
            "zipcode": "05472"
        },
        "email": "meghanjansen@outlook.fr",
        "phone": "0615069040"
    },
    {
        "id": 120,
        "name": "Bill Miller",
        "location": {
            "address": "2534 Willena Avenue",
            "city": "Montgomery",
            "state": "AL",
            "zipcode": "36107"
        },
        "email": "billmiller@yahoo.fr",
        "phone": "0620325377"
    },
    {
        "id": 121,
        "name": "Brittany Bell",
        "location": {
            "address": "3200 Southwest 95th Street",
            "city": "Oklahoma City",
            "state": "OK",
            "zipcode": "73159"
        },
        "email": "brittanybell@yahoo.com",
        "phone": "0612679652"
    },
    {
        "id": 122,
        "name": "Robert Chin",
        "location": {
            "address": "3449 Rockway Avenue",
            "city": "Annapolis",
            "state": "MD",
            "zipcode": "21403"
        },
        "email": "robertchin@gmail.com",
        "phone": "0691400894"
    },
    {
        "id": 123,
        "name": "Eileen Hudson",
        "location": {
            "address": "7905 Old Heady Road",
            "city": "Louisville",
            "state": "KY",
            "zipcode": "40299"
        },
        "email": "eileenhudson@outlook.com",
        "phone": "0628170785"
    },
    {
        "id": 124,
        "name": "William Shipman",
        "location": {
            "address": "6244 Sun River Drive",
            "city": "Sacramento",
            "state": "CA",
            "zipcode": "95824"
        },
        "email": "williamshipman@hotmail.fr",
        "phone": "O713689543"
    },
    {
        "id": 125,
        "name": "James White",
        "location": {
            "address": "5073 West 65th Place",
            "city": "Arvada",
            "state": "CO",
            "zipcode": "80003"
        },
        "email": "jameswhite@hotmail.com",
        "phone": "0699857474"
    },
    {
        "id": 126,
        "name": "David Herauf",
        "location": {
            "address": "6880 Xavier Circle",
            "city": "Westminster",
            "state": "CO",
            "zipcode": "80030"
        },
        "email": "davidherauf@hotmail.fr",
        "phone": "O795471013"
    },
    {
        "id": 127,
        "name": "Sherri James",
        "location": {
            "address": "118 Pearl Street",
            "city": "Manchester",
            "state": "CT",
            "zipcode": "06040"
        },
        "email": "sherrijames@gmail.fr",
        "phone": "0639641490"
    },
    {
        "id": 128,
        "name": "Jack Peaslee",
        "location": {
            "address": "3413 Pheasant Run Road",
            "city": "Norman",
            "state": "OK",
            "zipcode": "73072"
        },
        "email": "jackpeaslee@outlook.fr",
        "phone": "0642166075"
    },
    {
        "id": 129,
        "name": "Jerry Guimond",
        "location": {
            "address": "58 North Cove Road",
            "city": "Burlington",
            "state": "VT",
            "zipcode": "05408"
        },
        "email": "jerryguimond@yahoo.fr",
        "phone": "0663483241"
    },
    {
        "id": 130,
        "name": "William Curtis",
        "location": {
            "address": "715 36.1 Road",
            "city": "Palisade",
            "state": "CO",
            "zipcode": "81526"
        },
        "email": "williamcurtis@yahoo.com",
        "phone": "0679962930"
    },
    {
        "id": 131,
        "name": "Vivian Larson",
        "location": {
            "address": "501 West Maple Street",
            "city": "Fayetteville",
            "state": "AR",
            "zipcode": "72701"
        },
        "email": "vivianlarson@gmail.com",
        "phone": "O712083324"
    },
    {
        "id": 132,
        "name": "Mary Borsellino",
        "location": {
            "address": "1500 South Division Street",
            "city": "Guthrie",
            "state": "OK",
            "zipcode": "73044"
        },
        "email": "maryborsellino@gmail.fr",
        "phone": "O798843169"
    },
    {
        "id": 133,
        "name": "Tennie Ratchford",
        "location": {
            "address": "606 National Street",
            "city": "Fayetteville",
            "state": "AR",
            "zipcode": "72701"
        },
        "email": "tennieratchford@hotmail.fr",
        "phone": "0662014028"
    },
    {
        "id": 134,
        "name": "Courtney Ceja",
        "location": {
            "address": "8554 Twin Gable Drive",
            "city": "Montgomery",
            "state": "AL",
            "zipcode": "36116"
        },
        "email": "courtneyceja@outlook.com",
        "phone": "O733507221"
    },
    {
        "id": 135,
        "name": "Jennifer Hartsfield",
        "location": {
            "address": "4329 Howe Street",
            "city": "Oakland",
            "state": "CA",
            "zipcode": "94611"
        },
        "email": "jenniferhartsfield@hotmail.fr",
        "phone": "O793814140"
    },
    {
        "id": 136,
        "name": "John Childs",
        "location": {
            "address": "120 North Block Avenue",
            "city": "Fayetteville",
            "state": "AR",
            "zipcode": "72701"
        },
        "email": "johnchilds@outlook.com",
        "phone": "0689773232"
    },
    {
        "id": 137,
        "name": "Shawn Duquette",
        "location": {
            "address": "4405 West Solano Drive South",
            "city": "Glendale",
            "state": "AZ",
            "zipcode": "85301"
        },
        "email": "shawnduquette@yahoo.com",
        "phone": "0674003616"
    },
    {
        "id": 138,
        "name": "Harold Brown",
        "location": {
            "address": "1428 Flatwood Court",
            "city": "Crofton",
            "state": "MD",
            "zipcode": "21114"
        },
        "email": "haroldbrown@yahoo.fr",
        "phone": "0622850946"
    },
    {
        "id": 139,
        "name": "Dale Spivey",
        "location": {
            "address": "731 Mumford Street",
            "city": "Anchorage",
            "state": "AK",
            "zipcode": "99508"
        },
        "email": "dalespivey@yahoo.fr",
        "phone": "0639249949"
    },
    {
        "id": 140,
        "name": "Linda Anderson",
        "location": {
            "address": "8351 Forest Drive",
            "city": "Pasadena",
            "state": "MD",
            "zipcode": "21122"
        },
        "email": "lindaanderson@hotmail.fr",
        "phone": "0683785140"
    },
    {
        "id": 141,
        "name": "Estelle Hinson",
        "location": {
            "address": "1679 Frederick Michael Way",
            "city": "Livermore",
            "state": "CA",
            "zipcode": "94550"
        },
        "email": "estellehinson@gmail.fr",
        "phone": "O769173831"
    },
    {
        "id": 142,
        "name": "Thomas Smith",
        "location": {
            "address": "8432 West 78th Circle",
            "city": "Arvada",
            "state": "CO",
            "zipcode": "80005"
        },
        "email": "thomassmith@hotmail.com",
        "phone": "0661312734"
    },
    {
        "id": 143,
        "name": "Lon Sanchez",
        "location": {
            "address": "265 Airport Road",
            "city": "Weathersfield",
            "state": "VT",
            "zipcode": "05151"
        },
        "email": "lonsanchez@yahoo.com",
        "phone": "0698944204"
    },
    {
        "id": 144,
        "name": "Efrain Barnhardt",
        "location": {
            "address": "768 North Main Street",
            "city": "Manchester",
            "state": "CT",
            "zipcode": "06040"
        },
        "email": "efrainbarnhardt@hotmail.com",
        "phone": "0688608127"
    },
    {
        "id": 145,
        "name": "Jeffery Morrow",
        "location": {
            "address": "11 North Vineyard Drive",
            "city": "Pueblo West",
            "state": "CO",
            "zipcode": "81007"
        },
        "email": "jefferymorrow@yahoo.fr",
        "phone": "O799710286"
    },
    {
        "id": 146,
        "name": "Pierre Carbone",
        "location": {
            "address": "4182 North Valley Lake Drive",
            "city": "Fayetteville",
            "state": "AR",
            "zipcode": "72703"
        },
        "email": "pierrecarbone@outlook.com",
        "phone": "O723789618"
    },
    {
        "id": 147,
        "name": "David Rose",
        "location": {
            "address": "190 Countryside Drive",
            "city": "Farmington",
            "state": "AR",
            "zipcode": "72730"
        },
        "email": "davidrose@outlook.com",
        "phone": "O740675846"
    },
    {
        "id": 148,
        "name": "Krystal Harris",
        "location": {
            "address": "1304 Southwest 67th Street",
            "city": "Oklahoma City",
            "state": "OK",
            "zipcode": "73159"
        },
        "email": "krystalharris@gmail.com",
        "phone": "0634986840"
    },
    {
        "id": 149,
        "name": "Emma Jacobs",
        "location": {
            "address": "4755 Coventry Road",
            "city": "Montgomery",
            "state": "AL",
            "zipcode": "36116"
        },
        "email": "emmajacobs@outlook.com",
        "phone": "O733290043"
    },
    {
        "id": 150,
        "name": "Andrea Stevenson",
        "location": {
            "address": "347 Brewer Drive",
            "city": "Nashville",
            "state": "TN",
            "zipcode": "37211"
        },
        "email": "andreastevenson@outlook.com",
        "phone": "O724166653"
    },
    {
        "id": 151,
        "name": "Anthony Christoff",
        "location": {
            "address": "1101 West 48th Street",
            "city": "Savannah",
            "state": "GA",
            "zipcode": "31405"
        },
        "email": "anthonychristoff@hotmail.com",
        "phone": "0689429235"
    },
    {
        "id": 152,
        "name": "Bart Headrick",
        "location": {
            "address": "1629 South Razorback Road",
            "city": "Fayetteville",
            "state": "AR",
            "zipcode": "72701"
        },
        "email": "bartheadrick@hotmail.fr",
        "phone": "O727422845"
    },
    {
        "id": 153,
        "name": "Annette Nehring",
        "location": {
            "address": "15010 North 59th Avenue",
            "city": "Glendale",
            "state": "AZ",
            "zipcode": "85306"
        },
        "email": "annettenehring@yahoo.fr",
        "phone": "0679750217"
    },
    {
        "id": 154,
        "name": "Jeanette Lucas",
        "location": {
            "address": "31130 Meadowbrook Avenue",
            "city": "Hayward",
            "state": "CA",
            "zipcode": "94544"
        },
        "email": "jeanettelucas@gmail.fr",
        "phone": "0663691292"
    },
    {
        "id": 155,
        "name": "Timothy Holt",
        "location": {
            "address": "6108 Iris Way",
            "city": "Arvada",
            "state": "CO",
            "zipcode": "80004"
        },
        "email": "timothyholt@gmail.fr",
        "phone": "0626210856"
    },
    {
        "id": 156,
        "name": "Gloria Puhl",
        "location": {
            "address": "1433 Bretton View Road",
            "city": "Annapolis",
            "state": "MD",
            "zipcode": "21409"
        },
        "email": "gloriapuhl@gmail.com",
        "phone": "O794971577"
    },
    {
        "id": 157,
        "name": "Vera Elton",
        "location": {
            "address": "33300 Mission Boulevard",
            "city": "Union City",
            "state": "CA",
            "zipcode": "94587"
        },
        "email": "veraelton@hotmail.com",
        "phone": "0674094593"
    },
    {
        "id": 158,
        "name": "Betty Swanson",
        "location": {
            "address": "3 Furman Place",
            "city": "Swanton",
            "state": "VT",
            "zipcode": "05488"
        },
        "email": "bettyswanson@yahoo.fr",
        "phone": "O787675011"
    },
    {
        "id": 159,
        "name": "Jacquelyn Lucas",
        "location": {
            "address": "3408 Taylorsville Road",
            "city": "Louisville",
            "state": "KY",
            "zipcode": "40205"
        },
        "email": "jacquelynlucas@outlook.fr",
        "phone": "0660785838"
    },
    {
        "id": 160,
        "name": "Allen Jackson",
        "location": {
            "address": "3729 East Mission Boulevard",
            "city": "Fayetteville",
            "state": "AR",
            "zipcode": "72703"
        },
        "email": "allenjackson@outlook.fr",
        "phone": "O732509862"
    },
    {
        "id": 161,
        "name": "Hector Hannon",
        "location": {
            "address": "6120 Southeast 84th Street",
            "city": "Oklahoma City",
            "state": "OK",
            "zipcode": "73135"
        },
        "email": "hectorhannon@hotmail.com",
        "phone": "0643064075"
    },
    {
        "id": 162,
        "name": "Janet Wiley",
        "location": {
            "address": "2829 Cambridge Court",
            "city": "Oklahoma City",
            "state": "OK",
            "zipcode": "73116"
        },
        "email": "janetwiley@hotmail.com",
        "phone": "0676892568"
    },
    {
        "id": 163,
        "name": "Harriet Hans",
        "location": {
            "address": "112 Cherokee Road",
            "city": "Nashville",
            "state": "TN",
            "zipcode": "37205"
        },
        "email": "harriethans@outlook.com",
        "phone": "0673599709"
    },
    {
        "id": 164,
        "name": "Isabel Stroup",
        "location": {
            "address": "417 West Park Place",
            "city": "Oklahoma City",
            "state": "OK",
            "zipcode": "73103"
        },
        "email": "isabelstroup@yahoo.com",
        "phone": "0683555331"
    },
    {
        "id": 165,
        "name": "Carolyn Smith",
        "location": {
            "address": "8358 WB&A Road",
            "city": "Severn",
            "state": "MD",
            "zipcode": "21144"
        },
        "email": "carolynsmith@gmail.com",
        "phone": "0630779605"
    },
    {
        "id": 166,
        "name": "Sarah Turcotte",
        "location": {
            "address": "224 Charter Oak Street",
            "city": "Manchester",
            "state": "CT",
            "zipcode": "06040"
        },
        "email": "sarahturcotte@yahoo.com",
        "phone": "O776697028"
    },
    {
        "id": 167,
        "name": "Brenna Rodriquez",
        "location": {
            "address": "901 Samson Road",
            "city": "Saint Albans City",
            "state": "VT",
            "zipcode": "05478"
        },
        "email": "brennarodriquez@yahoo.com",
        "phone": "0648200581"
    },
    {
        "id": 168,
        "name": "Nell Miranda",
        "location": {
            "address": "622 Thomas Street",
            "city": "Woodland",
            "state": "CA",
            "zipcode": "95776"
        },
        "email": "nellmiranda@outlook.com",
        "phone": "0695056441"
    },
    {
        "id": 169,
        "name": "George Thixton",
        "location": {
            "address": "10749 West Kaler Drive",
            "city": "Glendale",
            "state": "AZ",
            "zipcode": "85307"
        },
        "email": "georgethixton@gmail.fr",
        "phone": "0692665323"
    },
    {
        "id": 170,
        "name": "David Hicks",
        "location": {
            "address": "421 Madison Street Northeast",
            "city": "Washington",
            "state": "DC",
            "zipcode": "20011"
        },
        "email": "davidhicks@outlook.com",
        "phone": "0689853944"
    },
    {
        "id": 171,
        "name": "William Oatney",
        "location": {
            "address": "93 Hamlin Street",
            "city": "Manchester",
            "state": "CT",
            "zipcode": "06040"
        },
        "email": "williamoatney@yahoo.com",
        "phone": "O759390096"
    },
    {
        "id": 172,
        "name": "Joshua Thomas",
        "location": {
            "address": "505 Tarpon Street",
            "city": "Panama City Beach",
            "state": "FL",
            "zipcode": "32413"
        },
        "email": "joshuathomas@yahoo.fr",
        "phone": "0650087852"
    },
    {
        "id": 173,
        "name": "Thomas Hostetler",
        "location": {
            "address": "343 Daman Drive",
            "city": "Montgomery",
            "state": "AL",
            "zipcode": "36108"
        },
        "email": "thomashostetler@yahoo.fr",
        "phone": "O725843125"
    },
    {
        "id": 174,
        "name": "Leticia Kennedy",
        "location": {
            "address": "2894 Music Avenue",
            "city": "Grand Junction",
            "state": "CO",
            "zipcode": "81506"
        },
        "email": "leticiakennedy@gmail.com",
        "phone": "O791901457"
    },
    {
        "id": 175,
        "name": "Morris Lopez",
        "location": {
            "address": "939 West Beach Drive",
            "city": "Panama City",
            "state": "FL",
            "zipcode": "32401"
        },
        "email": "morrislopez@hotmail.com",
        "phone": "O746576795"
    },
    {
        "id": 176,
        "name": "Steven Dommer",
        "location": {
            "address": "4000 Beth Manor Drive",
            "city": "Montgomery",
            "state": "AL",
            "zipcode": "36109"
        },
        "email": "stevendommer@hotmail.fr",
        "phone": "0647596827"
    },
    {
        "id": 177,
        "name": "Deidra Sheetz",
        "location": {
            "address": "140 William Chambers Junior Drive",
            "city": "Glen Burnie",
            "state": "MD",
            "zipcode": "21060"
        },
        "email": "deidrasheetz@gmail.fr",
        "phone": "0617812874"
    },
    {
        "id": 178,
        "name": "Sylvia Poole",
        "location": {
            "address": "103 Edgewater Road",
            "city": "Severna Park",
            "state": "MD",
            "zipcode": "21146"
        },
        "email": "sylviapoole@yahoo.com",
        "phone": "O719429483"
    },
    {
        "id": 179,
        "name": "Paul Duffey",
        "location": {
            "address": "12091 Mierkey Road",
            "city": "Jackson",
            "state": "CA",
            "zipcode": "95642"
        },
        "email": "paulduffey@outlook.com",
        "phone": "0672885370"
    },
    {
        "id": 180,
        "name": "Barbara Berlin",
        "location": {
            "address": "565 North Lakeshore Drive",
            "city": "Panama City Beach",
            "state": "FL",
            "zipcode": "32413"
        },
        "email": "barbaraberlin@hotmail.fr",
        "phone": "0644000750"
    },
    {
        "id": 181,
        "name": "Otilia Miller",
        "location": {
            "address": "2121 Stepping Stone Trail",
            "city": "Edmond",
            "state": "OK",
            "zipcode": "73013"
        },
        "email": "otiliamiller@gmail.fr",
        "phone": "0691901046"
    },
    {
        "id": 182,
        "name": "Gerardo Stepp",
        "location": {
            "address": "320 South Ramblin Oaks Drive",
            "city": "Moore",
            "state": "OK",
            "zipcode": "73160"
        },
        "email": "gerardostepp@outlook.com",
        "phone": "O730890238"
    },
    {
        "id": 183,
        "name": "Phyllis Monzo",
        "location": {
            "address": "5150 West Eugie Avenue",
            "city": "Glendale",
            "state": "AZ",
            "zipcode": "85304"
        },
        "email": "phyllismonzo@outlook.fr",
        "phone": "0685651477"
    },
    {
        "id": 184,
        "name": "April Reyna",
        "location": {
            "address": "8202 Dudley Way",
            "city": "Arvada",
            "state": "CO",
            "zipcode": "80005"
        },
        "email": "aprilreyna@outlook.com",
        "phone": "0690454916"
    },
    {
        "id": 185,
        "name": "Richard Davis",
        "location": {
            "address": "65 Lowry Road",
            "city": "Falmouth",
            "state": "MA",
            "zipcode": "02540"
        },
        "email": "richarddavis@yahoo.fr",
        "phone": "0666323985"
    },
    {
        "id": 186,
        "name": "Dawn Mullen",
        "location": {
            "address": "2044 Bullard Street",
            "city": "Montgomery",
            "state": "AL",
            "zipcode": "36106"
        },
        "email": "dawnmullen@gmail.fr",
        "phone": "O795293891"
    },
    {
        "id": 187,
        "name": "Travis Bell",
        "location": {
            "address": "6060 West Royal Palm Road",
            "city": "Glendale",
            "state": "AZ",
            "zipcode": "85302"
        },
        "email": "travisbell@yahoo.fr",
        "phone": "O713966348"
    },
    {
        "id": 188,
        "name": "Agnes Simmons",
        "location": {
            "address": "2269 Eastern Boulevard",
            "city": "Montgomery",
            "state": "AL",
            "zipcode": "36117"
        },
        "email": "agnessimmons@yahoo.fr",
        "phone": "0610921802"
    },
    {
        "id": 189,
        "name": "David Eash",
        "location": {
            "address": "4439 Gale Street",
            "city": "Livermore",
            "state": "CA",
            "zipcode": "94550"
        },
        "email": "davideash@outlook.com",
        "phone": "0673443073"
    },
    {
        "id": 190,
        "name": "Claudia Brawn",
        "location": {
            "address": "736 Middle Turnpike East",
            "city": "Manchester",
            "state": "CT",
            "zipcode": "06040"
        },
        "email": "claudiabrawn@outlook.fr",
        "phone": "O763826885"
    },
    {
        "id": 191,
        "name": "William Schmidt",
        "location": {
            "address": "646 Clinton Street",
            "city": "Montgomery",
            "state": "AL",
            "zipcode": "36108"
        },
        "email": "williamschmidt@yahoo.com",
        "phone": "O786505455"
    },
    {
        "id": 192,
        "name": "Laurel Perez",
        "location": {
            "address": "301 Willow Way",
            "city": "Lynn Haven",
            "state": "FL",
            "zipcode": "32444"
        },
        "email": "laurelperez@yahoo.fr",
        "phone": "0652882963"
    },
    {
        "id": 193,
        "name": "Michael Molina",
        "location": {
            "address": "1495 Snell Boulevard",
            "city": "Nashville",
            "state": "TN",
            "zipcode": "37218"
        },
        "email": "michaelmolina@gmail.fr",
        "phone": "0661131806"
    },
    {
        "id": 194,
        "name": "William Mcconnel",
        "location": {
            "address": "3919 Landherr Drive",
            "city": "Louisville",
            "state": "KY",
            "zipcode": "40299"
        },
        "email": "williammcconnel@outlook.com",
        "phone": "O751119514"
    },
    {
        "id": 195,
        "name": "Cassidy Lucius",
        "location": {
            "address": "439 Crestmont Drive",
            "city": "Oakland",
            "state": "CA",
            "zipcode": "94619"
        },
        "email": "cassidylucius@gmail.fr",
        "phone": "O772058652"
    },
    {
        "id": 196,
        "name": "Sylvia Hadfield",
        "location": {
            "address": "12156 Oslo Drive",
            "city": "Truckee",
            "state": "CA",
            "zipcode": "96161"
        },
        "email": "sylviahadfield@hotmail.com",
        "phone": "O712830673"
    },
    {
        "id": 197,
        "name": "Glen Welch",
        "location": {
            "address": "4052 Brandywine Pointe Boulevard",
            "city": "Nashville",
            "state": "TN",
            "zipcode": "37138"
        },
        "email": "glenwelch@gmail.com",
        "phone": "0662684547"
    },
    {
        "id": 198,
        "name": "Casey Kelker",
        "location": {
            "address": "91 Hoague Drive",
            "city": "Highgate",
            "state": "VT",
            "zipcode": "05459"
        },
        "email": "caseykelker@outlook.fr",
        "phone": "O797897450"
    },
    {
        "id": 199,
        "name": "Patsy Holt",
        "location": {
            "address": "8886 West 77th Circle",
            "city": "Arvada",
            "state": "CO",
            "zipcode": "80005"
        },
        "email": "patsyholt@hotmail.com",
        "phone": "O726708928"
    },
    {
        "id": 200,
        "name": "Oscar Pacheco",
        "location": {
            "address": "2534 Willena Avenue",
            "city": "Montgomery",
            "state": "AL",
            "zipcode": "36107"
        },
        "email": "oscarpacheco@yahoo.com",
        "phone": "0643612324"
    },
    {
        "id": 201,
        "name": "Katherine Hambrick",
        "location": {
            "address": "32512 Christine Drive",
            "city": "Union City",
            "state": "CA",
            "zipcode": "94587"
        },
        "email": "katherinehambrick@yahoo.fr",
        "phone": "0630399552"
    },
    {
        "id": 202,
        "name": "Jenifer Angulo",
        "location": {
            "address": "1701 18th Avenue South",
            "city": "Nashville",
            "state": "TN",
            "zipcode": "37212"
        },
        "email": "jeniferangulo@gmail.com",
        "phone": "O774078196"
    },
    {
        "id": 203,
        "name": "Randa Barrios",
        "location": {
            "address": "86 Highland Street",
            "city": "Manchester",
            "state": "CT",
            "zipcode": "06040"
        },
        "email": "randabarrios@outlook.fr",
        "phone": "0677315779"
    },
    {
        "id": 204,
        "name": "Joyce Osterhoudt",
        "location": {
            "address": "629 Cutter Court",
            "city": "Annapolis",
            "state": "MD",
            "zipcode": "21401"
        },
        "email": "joyceosterhoudt@hotmail.fr",
        "phone": "O754235033"
    },
    {
        "id": 205,
        "name": "Kelly Frazier",
        "location": {
            "address": "43949 South Moray Street",
            "city": "Fremont",
            "state": "CA",
            "zipcode": "94539"
        },
        "email": "kellyfrazier@hotmail.fr",
        "phone": "O770848982"
    },
    {
        "id": 206,
        "name": "Raymond Hunt",
        "location": {
            "address": "420 D Street Northwest",
            "city": "Ardmore",
            "state": "OK",
            "zipcode": "73401"
        },
        "email": "raymondhunt@hotmail.com",
        "phone": "O789796711"
    },
    {
        "id": 207,
        "name": "Christopher Wilcox",
        "location": {
            "address": "138 Bolton Street",
            "city": "Manchester",
            "state": "CT",
            "zipcode": "06040"
        },
        "email": "christopherwilcox@yahoo.fr",
        "phone": "O752964276"
    },
    {
        "id": 208,
        "name": "Kyle Brown",
        "location": {
            "address": "20228 Crabtree Street",
            "city": "Anchorage",
            "state": "AK",
            "zipcode": "99567"
        },
        "email": "kylebrown@gmail.fr",
        "phone": "0638859307"
    },
    {
        "id": 209,
        "name": "Harriet Small",
        "location": {
            "address": "6911 Steven Road",
            "city": "Panama City",
            "state": "FL",
            "zipcode": "32404"
        },
        "email": "harrietsmall@gmail.com",
        "phone": "O782313046"
    },
    {
        "id": 210,
        "name": "Olga Krueger",
        "location": {
            "address": "2632 Jackson Street East",
            "city": "Carson",
            "state": "CA",
            "zipcode": "90810"
        },
        "email": "olgakrueger@hotmail.com",
        "phone": "O743032460"
    },
    {
        "id": 211,
        "name": "Ann Calloway",
        "location": {
            "address": "98 Lincoln Street",
            "city": "Revere",
            "state": "MA",
            "zipcode": "02151"
        },
        "email": "anncalloway@yahoo.com",
        "phone": "0695643347"
    },
    {
        "id": 212,
        "name": "Jared Smith",
        "location": {
            "address": "241 Methuen Street",
            "city": "Lowell",
            "state": "MA",
            "zipcode": "01850"
        },
        "email": "jaredsmith@outlook.com",
        "phone": "O717504448"
    },
    {
        "id": 213,
        "name": "Joaquin Hayes",
        "location": {
            "address": "73 Lower Main Street",
            "city": "Morristown",
            "state": "VT",
            "zipcode": "05661"
        },
        "email": "joaquinhayes@yahoo.com",
        "phone": "0680308806"
    },
    {
        "id": 214,
        "name": "Thelma Ireland",
        "location": {
            "address": "58 Rice Street Southwest",
            "city": "Washington",
            "state": "DC",
            "zipcode": "20032"
        },
        "email": "thelmaireland@yahoo.fr",
        "phone": "0696829969"
    },
    {
        "id": 215,
        "name": "Maria Kropf",
        "location": {
            "address": "3823 Shannon Run Trail",
            "city": "Louisville",
            "state": "KY",
            "zipcode": "40299"
        },
        "email": "mariakropf@hotmail.com",
        "phone": "0666883200"
    },
    {
        "id": 216,
        "name": "Geraldine Taylor",
        "location": {
            "address": "266 South J Street",
            "city": "Livermore",
            "state": "CA",
            "zipcode": "94550"
        },
        "email": "geraldinetaylor@yahoo.com",
        "phone": "0610971593"
    },
    {
        "id": 217,
        "name": "Helen Collins",
        "location": {
            "address": "145 Grau Drive",
            "city": "Fremont",
            "state": "CA",
            "zipcode": "94536"
        },
        "email": "helencollins@outlook.com",
        "phone": "O777136110"
    },
    {
        "id": 218,
        "name": "Paulette Poitras",
        "location": {
            "address": "2248 South Sutherland Drive",
            "city": "Montgomery",
            "state": "AL",
            "zipcode": "36116"
        },
        "email": "paulettepoitras@outlook.com",
        "phone": "O749567963"
    },
    {
        "id": 219,
        "name": "Sharon Stack",
        "location": {
            "address": "4316 Dover Road",
            "city": "Louisville",
            "state": "KY",
            "zipcode": "40216"
        },
        "email": "sharonstack@gmail.fr",
        "phone": "O719652216"
    },
    {
        "id": 220,
        "name": "Kathleen Foster",
        "location": {
            "address": "302 Elberta Street",
            "city": "Nashville",
            "state": "TN",
            "zipcode": "37210"
        },
        "email": "kathleenfoster@gmail.com",
        "phone": "0610349101"
    },
    {
        "id": 221,
        "name": "Shannon Cuellar",
        "location": {
            "address": "5222 West Laurie Lane",
            "city": "Glendale",
            "state": "AZ",
            "zipcode": "85302"
        },
        "email": "shannoncuellar@gmail.com",
        "phone": "O753193866"
    },
    {
        "id": 222,
        "name": "Renee Hinson",
        "location": {
            "address": "9605 West 62nd Place",
            "city": "Arvada",
            "state": "CO",
            "zipcode": "80004"
        },
        "email": "reneehinson@yahoo.fr",
        "phone": "O732838680"
    },
    {
        "id": 223,
        "name": "Carrie Tibbetts",
        "location": {
            "address": "38252 Farwell Drive",
            "city": "Fremont",
            "state": "CA",
            "zipcode": "94536"
        },
        "email": "carrietibbetts@gmail.com",
        "phone": "O754211461"
    },
    {
        "id": 224,
        "name": "Sarah Sarkin",
        "location": {
            "address": "6140 Fenton Street",
            "city": "Arvada",
            "state": "CO",
            "zipcode": "80003"
        },
        "email": "sarahsarkin@yahoo.fr",
        "phone": "O758154847"
    },
    {
        "id": 225,
        "name": "Jose Lincoln",
        "location": {
            "address": "4717 Forest Hills Drive",
            "city": "Noble",
            "state": "OK",
            "zipcode": "73068"
        },
        "email": "joselincoln@outlook.com",
        "phone": "0679941527"
    },
    {
        "id": 226,
        "name": "Louis Morgan",
        "location": {
            "address": "2803 6th Street Northeast",
            "city": "Washington",
            "state": "DC",
            "zipcode": "20017"
        },
        "email": "louismorgan@gmail.fr",
        "phone": "O727634099"
    },
    {
        "id": 227,
        "name": "Salvatore Roche",
        "location": {
            "address": "475 Maple Street",
            "city": "Holyoke",
            "state": "MA",
            "zipcode": "01040"
        },
        "email": "salvatoreroche@gmail.fr",
        "phone": "0631526559"
    },
    {
        "id": 228,
        "name": "Johnny Bicknell",
        "location": {
            "address": "4511 Sloat Road",
            "city": "Fremont",
            "state": "CA",
            "zipcode": "94538"
        },
        "email": "johnnybicknell@outlook.com",
        "phone": "O743867540"
    },
    {
        "id": 229,
        "name": "Chester Ortiz",
        "location": {
            "address": "2311 West Lawson Street",
            "city": "Fayetteville",
            "state": "AR",
            "zipcode": "72703"
        },
        "email": "chesterortiz@yahoo.com",
        "phone": "O724448517"
    },
    {
        "id": 230,
        "name": "Eric Close",
        "location": {
            "address": "409 Snook Lane",
            "city": "Panama City Beach",
            "state": "FL",
            "zipcode": "32408"
        },
        "email": "ericclose@gmail.fr",
        "phone": "O774160523"
    },
    {
        "id": 231,
        "name": "Mary Hall",
        "location": {
            "address": "6244 Sun River Drive",
            "city": "Sacramento",
            "state": "CA",
            "zipcode": "95824"
        },
        "email": "maryhall@gmail.com",
        "phone": "0657973460"
    },
    {
        "id": 232,
        "name": "Vera Barbour",
        "location": {
            "address": "7717 Everett Street",
            "city": "Arvada",
            "state": "CO",
            "zipcode": "80005"
        },
        "email": "verabarbour@hotmail.fr",
        "phone": "O718013475"
    },
    {
        "id": 233,
        "name": "Alma Spears",
        "location": {
            "address": "7105 Tanager Avenue",
            "city": "Glen Burnie",
            "state": "MD",
            "zipcode": "21060"
        },
        "email": "almaspears@gmail.fr",
        "phone": "0615549557"
    },
    {
        "id": 234,
        "name": "Kenny Wilson",
        "location": {
            "address": "325 Alexander Drive",
            "city": "Lynn Haven",
            "state": "FL",
            "zipcode": "32444"
        },
        "email": "kennywilson@hotmail.fr",
        "phone": "O712303544"
    },
    {
        "id": 235,
        "name": "Jamila Holcomb",
        "location": {
            "address": "314 Cherrywood Drive",
            "city": "Moore",
            "state": "OK",
            "zipcode": "73160"
        },
        "email": "jamilaholcomb@hotmail.fr",
        "phone": "0664942552"
    },
    {
        "id": 236,
        "name": "Tom Satterwhite",
        "location": {
            "address": "12725 Landmark Street",
            "city": "Anchorage",
            "state": "AK",
            "zipcode": "99515"
        },
        "email": "tomsatterwhite@yahoo.com",
        "phone": "0658939630"
    },
    {
        "id": 237,
        "name": "Tracy Baker",
        "location": {
            "address": "7947 Citadel Drive",
            "city": "Severn",
            "state": "MD",
            "zipcode": "21144"
        },
        "email": "tracybaker@hotmail.fr",
        "phone": "0682835887"
    },
    {
        "id": 238,
        "name": "Ruby Boyer",
        "location": {
            "address": "52 Oleary Drive",
            "city": "Manchester",
            "state": "CT",
            "zipcode": "06040"
        },
        "email": "rubyboyer@yahoo.com",
        "phone": "O744647006"
    },
    {
        "id": 239,
        "name": "Jeff Forman",
        "location": {
            "address": "2821 Tyson Place",
            "city": "Louisville",
            "state": "KY",
            "zipcode": "40218"
        },
        "email": "jeffforman@outlook.fr",
        "phone": "0674801079"
    },
    {
        "id": 240,
        "name": "Hazel Valentine",
        "location": {
            "address": "6444 North 67th Avenue",
            "city": "Glendale",
            "state": "AZ",
            "zipcode": "85301"
        },
        "email": "hazelvalentine@yahoo.fr",
        "phone": "O760551499"
    },
    {
        "id": 241,
        "name": "Angela Clower",
        "location": {
            "address": "2909 Minnesota Avenue",
            "city": "Lynn Haven",
            "state": "FL",
            "zipcode": "32444"
        },
        "email": "angelaclower@gmail.com",
        "phone": "0639204881"
    },
    {
        "id": 242,
        "name": "Larry Brockman",
        "location": {
            "address": "580 Hollow Wood Road",
            "city": "Montgomery",
            "state": "AL",
            "zipcode": "36109"
        },
        "email": "larrybrockman@gmail.com",
        "phone": "0687503858"
    },
    {
        "id": 243,
        "name": "Cherise Dominique",
        "location": {
            "address": "91 85th Avenue",
            "city": "Fayetteville",
            "state": "AR",
            "zipcode": "72704"
        },
        "email": "cherisedominique@outlook.fr",
        "phone": "0612607123"
    },
    {
        "id": 244,
        "name": "Misty Payne",
        "location": {
            "address": "854 Cherry Trail",
            "city": "Crownsville",
            "state": "MD",
            "zipcode": "21032"
        },
        "email": "mistypayne@outlook.fr",
        "phone": "0675622446"
    },
    {
        "id": 245,
        "name": "Haley Cresci",
        "location": {
            "address": "2375 Main Street",
            "city": "Palmer",
            "state": "MA",
            "zipcode": "01069"
        },
        "email": "haleycresci@outlook.com",
        "phone": "0680819635"
    },
    {
        "id": 246,
        "name": "Bryan Mcdermott",
        "location": {
            "address": "4601 Reka Drive",
            "city": "Anchorage",
            "state": "AK",
            "zipcode": "99508"
        },
        "email": "bryanmcdermott@outlook.com",
        "phone": "O783719445"
    },
    {
        "id": 247,
        "name": "Donald Spain",
        "location": {
            "address": "46 Sugarloaf Hill Road",
            "city": "Warren",
            "state": "VT",
            "zipcode": "05674"
        },
        "email": "donaldspain@outlook.com",
        "phone": "0680415931"
    },
    {
        "id": 248,
        "name": "Elsie Jordan",
        "location": {
            "address": "1025 West 19th Street",
            "city": "Panama City",
            "state": "FL",
            "zipcode": "32405"
        },
        "email": "elsiejordan@hotmail.fr",
        "phone": "O723966191"
    },
    {
        "id": 249,
        "name": "Manuel Woods",
        "location": {
            "address": "410 Fairlea Drive",
            "city": "Edgewater",
            "state": "MD",
            "zipcode": "21037"
        },
        "email": "manuelwoods@yahoo.fr",
        "phone": "0620012026"
    },
    {
        "id": 250,
        "name": "Marie Deshayes",
        "location": {
            "address": "210 Depot Street",
            "city": "Woodford",
            "state": "VT",
            "zipcode": "05201"
        },
        "email": "mariedeshayes@gmail.fr",
        "phone": "O780608212"
    },
    {
        "id": 251,
        "name": "Yolanda Rogan",
        "location": {
            "address": "2 Sotelo Avenue",
            "city": "Piedmont",
            "state": "CA",
            "zipcode": "94611"
        },
        "email": "yolandarogan@gmail.com",
        "phone": "O778553226"
    },
    {
        "id": 252,
        "name": "Jeremy Leblanc",
        "location": {
            "address": "406 Stilz Avenue",
            "city": "Louisville",
            "state": "KY",
            "zipcode": "40206"
        },
        "email": "jeremyleblanc@gmail.com",
        "phone": "0681702977"
    },
    {
        "id": 253,
        "name": "Ella Sutton",
        "location": {
            "address": "1709 Travers Court",
            "city": "Edmond",
            "state": "OK",
            "zipcode": "73003"
        },
        "email": "ellasutton@yahoo.fr",
        "phone": "0697999674"
    },
    {
        "id": 254,
        "name": "Gary Sullivan",
        "location": {
            "address": "3035 Osprey Circle",
            "city": "Panama City",
            "state": "FL",
            "zipcode": "32405"
        },
        "email": "garysullivan@gmail.fr",
        "phone": "0627920004"
    }
]
